[
  {
    "id": 1,
    "name": "Delta Kebab - Starogard Gdański",
    "address": "Rynek 38, 83-200 Starogard Gdański",
    "city": "Starogard Gdański",
    "latitude": 53.9637,
    "longitude": 18.5267,
    "openingHours": "10:00-23:00"
  },
  {
    "id": 2,
    "name": "Delta Kebab - Cieplewo",
    "address": "Długa 101a/Local 7, 83-031 Cieplewo",
    "city": "Cieplewo",
    "latitude": 54.2831,
    "longitude": 18.5772,
    "openingHours": "10:00-22:00"
  },
  {
    "id": 3,
    "name": "Delta Kebab - Tczew Wojska Polskiego",
    "address": "Wojska Polskiego 28, 83-110 Tczew",
    "city": "Tczew",
    "latitude": 54.0924,
    "longitude": 18.7778,
    "openingHours": "10:00-23:00"
  },
  {
    "id": 4,
    "name": "Delta Kebab - Pruszcz Gdański",
    "address": "Chopina 2, 83-000 Pruszcz Gdański",
    "city": "Pruszcz Gdański",
    "latitude": 54.2598,
    "longitude": 18.6365,
    "openingHours": "10:00-23:00"
  },
  {
    "id": 5,
    "name": "Delta Kebab - Malbork",
    "address": "Fryderyka Chopina 3, 82-200 Malbork",
    "city": "Malbork",
    "latitude": 54.0368,
    "longitude": 19.0269,
    "openingHours": "10:00-22:00"
  },
  {
    "id": 6,
    "name": "Delta Kebab - Tczew Jodłowa",
    "address": "Jodłowa 11A, 83-110 Tczew",
    "city": "Tczew",
    "latitude": 54.0970,
    "longitude": 18.7700,
    "openingHours": "10:00-23:00"
  },
  {
    "id": 7,
    "name": "Delta Kebab - Kowale",
    "address": "Apollina 16/2, 80-180 Kowale",
    "city": "Kowale",
    "latitude": 54.3592,
    "longitude": 18.4886,
    "openingHours": "10:00-23:00"
  },
  {
    "id": 8,
    "name": "Delta Kebab - Tuchola",
    "address": "Świecka 26, 89-500 Tuchola",
    "city": "Tuchola",
    "latitude": 53.5879,
    "longitude": 17.8591,
    "openingHours": "10:00-22:00"
  }
]
